{
  "Memories": [
    {
      "id": 1,
      "title": "Cocoa Beach Outreach",
      "tags": ["Outreach", "Beach"],
      "latitude": 28.320587,
      "longitude": -80.607699,
      "week": 1,
      "story": "Lorem ipsum dolor sit amet, consectetur adipiscing elit, sed do eiusmod tempor incididunt ut labore et dolore magna aliqua. Ut enim ad minim veniam, quis nostrud exercitation ullamco laboris nisi ut aliquip ex ea commodo consequat.",
      "photos": null
    },
    {
      "id": 2,
      "title": "Disney Springs",
      "tags": ["Fun"],
      "latitude": 28.371153,
      "longitude": -81.518369,
      "week": 1,
      "story": "Lorem ipsum dolor sit amet, consectetur adipiscing elit, sed do eiusmod tempor incididunt ut labore et dolore magna aliqua. Ut enim ad minim veniam, quis nostrud exercitation ullamco laboris nisi ut aliquip ex ea commodo consequat. ",
      "photos": null
    },
    {
      "id": 3,
      "title": "Jesus Film Tour",
      "tags": ["Office"],
      "latitude": 28.407056,
      "longitude": -81.201858,
      "week": 1,
      "story": "Lorem ipsum dolor sit amet, consectetur adipiscing elit, sed do eiusmod tempor incididunt ut labore et dolore magna aliqua. Ut enim ad minim veniam, quis nostrud exercitation ullamco laboris nisi ut aliquip ex ea commodo consequat. ",
      "photos": null
    },
    {
      "id": 4,
      "title": "Soul to Soul",
      "tags": [],
      "latitude": 28.435582,
      "longitude": -81.2548179,
      "week": 1,
      "story": "Lorem ipsum dolor sit amet, consectetur adipiscing elit, sed do eiusmod tempor incididunt ut labore et dolore magna aliqua. Ut enim ad minim veniam, quis nostrud exercitation ullamco laboris nisi ut aliquip ex ea commodo consequat. ",
      "photos": null
    },
    {
      "id": 5,
      "title": "Campus Outreach",
      "tags": ["Outreach", "Campus"],
      "latitude": 28.746668,
      "longitude": -81.304595,
      "week": 2,
      "story": "Lorem ipsum dolor sit amet, consectetur adipiscing elit, sed do eiusmod tempor incididunt ut labore et dolore magna aliqua. Ut enim ad minim veniam, quis nostrud exercitation ullamco laboris nisi ut aliquip ex ea commodo consequat. ",
      "photos": null
    },
    {
      "id": 6,
      "title": "Cookout by the Pool",
      "tags": ["Fun"],
      "latitude": 28.434557,
      "longitude": -81.255126,
      "week": 2,
      "story": "Lorem ipsum dolor sit amet, consectetur adipiscing elit, sed do eiusmod tempor incididunt ut labore et dolore magna aliqua. Ut enim ad minim veniam, quis nostrud exercitation ullamco laboris nisi ut aliquip ex ea commodo consequat. ",
      "photos": null
    },
    {
      "id": 7,
      "title": "Outreach at the Mall",
      "tags": ["Outreach", "Mall"],
      "latitude": 28.444754,
      "longitude": -81.395868,
      "week": 2,
      "story": "Lorem ipsum dolor sit amet, consectetur adipiscing elit, sed do eiusmod tempor incididunt ut labore et dolore magna aliqua. Ut enim ad minim veniam, quis nostrud exercitation ullamco laboris nisi ut aliquip ex ea commodo consequat. ",
      "photos": null
    },
    {
      "id": 8,
      "title": "Predictive Index Training",
      "tags": [],
      "latitude": 28.406827,
      "longitude": -81.202213,
      "week": 2,
      "story": "Lorem ipsum dolor sit amet, consectetur adipiscing elit, sed do eiusmod tempor incididunt ut labore et dolore magna aliqua. Ut enim ad minim veniam, quis nostrud exercitation ullamco laboris nisi ut aliquip ex ea commodo consequat. ",
      "photos": null
    },
    {
      "id": 9,
      "title": "Scavenger Hunt",
      "tags": ["Fun"],
      "latitude": 28.435707,
      "longitude": -81.254775,
      "week": 2,
      "story": "Lorem ipsum dolor sit amet, consectetur adipiscing elit, sed do eiusmod tempor incididunt ut labore et dolore magna aliqua. Ut enim ad minim veniam, quis nostrud exercitation ullamco laboris nisi ut aliquip ex ea commodo consequat. ",
      "photos": null
    },
    {
      "id": 10,
      "title": "Mission Teams",
      "tags": [],
      "latitude": 28.406535,
      "longitude": -81.202472,
      "week": 2,
      "story": "Lorem ipsum dolor sit amet, consectetur adipiscing elit, sed do eiusmod tempor incididunt ut labore et dolore magna aliqua. Ut enim ad minim veniam, quis nostrud exercitation ullamco laboris nisi ut aliquip ex ea commodo consequat. ",
      "photos": null
    },
    {
      "id": 11,
      "title": "Second Campus Outreach",
      "tags": ["Outreach", "Campus"],
      "latitude": 28.554131,
      "longitude": -81.251753,
      "week": 3,
      "story": "Lorem ipsum dolor sit amet, consectetur adipiscing elit, sed do eiusmod tempor incididunt ut labore et dolore magna aliqua. Ut enim ad minim veniam, quis nostrud exercitation ullamco laboris nisi ut aliquip ex ea commodo consequat. ",
      "photos": null
    },
    {
      "id": 12,
      "title": "Digital Outreach",
      "tags": ["Outreach"],
      "latitude": 28.406861,
      "longitude": -81.202053,
      "week": 3,
      "story": "Lorem ipsum dolor sit amet, consectetur adipiscing elit, sed do eiusmod tempor incididunt ut labore et dolore magna aliqua. Ut enim ad minim veniam, quis nostrud exercitation ullamco laboris nisi ut aliquip ex ea commodo consequat. ",
      "photos": null
    },
    {
      "id": 13,
      "title": "Sushi & Beach",
      "tags": ["Fun", "Beach"],
      "latitude": 28.071636,
      "longitude": -80.558143,
      "week": 3,
      "story": "Lorem ipsum dolor sit amet, consectetur adipiscing elit, sed do eiusmod tempor incididunt ut labore et dolore magna aliqua. Ut enim ad minim veniam, quis nostrud exercitation ullamco laboris nisi ut aliquip ex ea commodo consequat. ",
      "photos": null
    },
    {
      "id": 14,
      "title": "Office Work",
      "tags": ["Office"],
      "latitude": 28.406861,
      "longitude": -81.202053,
      "week": 0,
      "story": "Lorem ipsum dolor sit amet, consectetur adipiscing elit, sed do eiusmod tempor incididunt ut labore et dolore magna aliqua. Ut enim ad minim veniam, quis nostrud exercitation ullamco laboris nisi ut aliquip ex ea commodo consequat. ",
      "photos": null
    },
    {
      "id": 15,
      "title": "Mini Golf",
      "tags": ["Fun"],
      "latitude": 28.462662,
      "longitude": -81.460677,
      "week": 3,
      "story": "Lorem ipsum dolor sit amet, consectetur adipiscing elit, sed do eiusmod tempor incididunt ut labore et dolore magna aliqua. Ut enim ad minim veniam, quis nostrud exercitation ullamco laboris nisi ut aliquip ex ea commodo consequat. ",
      "photos": null
    }
  ]
}
